$GPGGA,224244.377,4304.111,N,08923.850,W,1,12,1.0,0.0,M,0.0,M,,*76
$GPGSA,A,3,01,02,03,04,05,06,07,08,09,10,11,12,1.0,1.0,1.0*30
$GPRMC,224244.377,A,4304.111,N,08923.850,W,038.9,023.2,161125,000.0,W*63
$GPGGA,224245.377,4304.121,N,08923.844,W,1,12,1.0,0.0,M,0.0,M,,*71
$GPGSA,A,3,01,02,03,04,05,06,07,08,09,10,11,12,1.0,1.0,1.0*30
$GPRMC,224245.377,A,4304.121,N,08923.844,W,038.9,295.8,161125,000.0,W*61
$GPGGA,224246.377,4304.125,N,08923.857,W,1,12,1.0,0.0,M,0.0,M,,*74
$GPGSA,A,3,01,02,03,04,05,06,07,08,09,10,11,12,1.0,1.0,1.0*30
$GPRMC,224246.377,A,4304.125,N,08923.857,W,038.9,295.8,161125,000.0,W*64
$GPGGA,224247.377,4304.130,N,08923.870,W,1,12,1.0,0.0,M,0.0,M,,*74
$GPGSA,A,3,01,02,03,04,05,06,07,08,09,10,11,12,1.0,1.0,1.0*30
$GPRMC,224247.377,A,4304.130,N,08923.870,W,038.9,295.8,161125,000.0,W*64
$GPGGA,224248.377,4304.135,N,08923.884,W,1,12,1.0,0.0,M,0.0,M,,*75
$GPGSA,A,3,01,02,03,04,05,06,07,08,09,10,11,12,1.0,1.0,1.0*30
$GPRMC,224248.377,A,4304.135,N,08923.884,W,038.9,292.8,161125,000.0,W*62
$GPGGA,224249.377,4304.139,N,08923.897,W,1,12,1.0,0.0,M,0.0,M,,*7A
$GPGSA,A,3,01,02,03,04,05,06,07,08,09,10,11,12,1.0,1.0,1.0*30
$GPRMC,224249.377,A,4304.139,N,08923.897,W,038.9,292.8,161125,000.0,W*6D
$GPGGA,224250.377,4304.143,N,08923.911,W,1,12,1.0,0.0,M,0.0,M,,*70
$GPGSA,A,3,01,02,03,04,05,06,07,08,09,10,11,12,1.0,1.0,1.0*30
$GPRMC,224250.377,A,4304.143,N,08923.911,W,038.9,292.8,161125,000.0,W*67
$GPGGA,224251.377,4304.147,N,08923.925,W,1,12,1.0,0.0,M,0.0,M,,*72
$GPGSA,A,3,01,02,03,04,05,06,07,08,09,10,11,12,1.0,1.0,1.0*30
$GPRMC,224251.377,A,4304.147,N,08923.925,W,038.9,292.8,161125,000.0,W*65
$GPGGA,224252.377,4304.151,N,08923.938,W,1,12,1.0,0.0,M,0.0,M,,*7A
$GPGSA,A,3,01,02,03,04,05,06,07,08,09,10,11,12,1.0,1.0,1.0*30
$GPRMC,224252.377,A,4304.151,N,08923.938,W,038.9,292.8,161125,000.0,W*6D
$GPGGA,224253.377,4304.155,N,08923.952,W,1,12,1.0,0.0,M,0.0,M,,*73
$GPGSA,A,3,01,02,03,04,05,06,07,08,09,10,11,12,1.0,1.0,1.0*30
$GPRMC,224253.377,A,4304.155,N,08923.952,W,038.9,001.2,161125,000.0,W*66
$GPGGA,224254.377,4304.166,N,08923.952,W,1,12,1.0,0.0,M,0.0,M,,*74
$GPGSA,A,3,01,02,03,04,05,06,07,08,09,10,11,12,1.0,1.0,1.0*30
$GPRMC,224254.377,A,4304.166,N,08923.952,W,038.9,001.2,161125,000.0,W*61
$GPGGA,224255.377,4304.177,N,08923.951,W,1,12,1.0,0.0,M,0.0,M,,*76
$GPGSA,A,3,01,02,03,04,05,06,07,08,09,10,11,12,1.0,1.0,1.0*30
$GPRMC,224255.377,A,4304.177,N,08923.951,W,038.9,001.2,161125,000.0,W*63
$GPGGA,224256.377,4304.188,N,08923.951,W,1,12,1.0,0.0,M,0.0,M,,*75
$GPGSA,A,3,01,02,03,04,05,06,07,08,09,10,11,12,1.0,1.0,1.0*30
$GPRMC,224256.377,A,4304.188,N,08923.951,W,038.9,001.2,161125,000.0,W*60
$GPGGA,224257.377,4304.199,N,08923.951,W,1,12,1.0,0.0,M,0.0,M,,*74
$GPGSA,A,3,01,02,03,04,05,06,07,08,09,10,11,12,1.0,1.0,1.0*30
$GPRMC,224257.377,A,4304.199,N,08923.951,W,038.9,001.2,161125,000.0,W*61
$GPGGA,224258.377,4304.209,N,08923.950,W,1,12,1.0,0.0,M,0.0,M,,*70
$GPGSA,A,3,01,02,03,04,05,06,07,08,09,10,11,12,1.0,1.0,1.0*30
$GPRMC,224258.377,A,4304.209,N,08923.950,W,038.9,001.2,161125,000.0,W*65
$GPGGA,224259.377,4304.220,N,08923.950,W,1,12,1.0,0.0,M,0.0,M,,*7A
$GPGSA,A,3,01,02,03,04,05,06,07,08,09,10,11,12,1.0,1.0,1.0*30
$GPRMC,224259.377,A,4304.220,N,08923.950,W,038.9,001.2,161125,000.0,W*6F
$GPGGA,224300.377,4304.231,N,08923.950,W,1,12,1.0,0.0,M,0.0,M,,*77
$GPGSA,A,3,01,02,03,04,05,06,07,08,09,10,11,12,1.0,1.0,1.0*30
$GPRMC,224300.377,A,4304.231,N,08923.950,W,038.9,006.9,161125,000.0,W*6E
$GPGGA,224301.377,4304.242,N,08923.948,W,1,12,1.0,0.0,M,0.0,M,,*7B
$GPGSA,A,3,01,02,03,04,05,06,07,08,09,10,11,12,1.0,1.0,1.0*30
$GPRMC,224301.377,A,4304.242,N,08923.948,W,038.9,001.6,161125,000.0,W*6A
$GPGGA,224302.377,4304.252,N,08923.948,W,1,12,1.0,0.0,M,0.0,M,,*79
$GPGSA,A,3,01,02,03,04,05,06,07,08,09,10,11,12,1.0,1.0,1.0*30
$GPRMC,224302.377,A,4304.252,N,08923.948,W,038.9,001.6,161125,000.0,W*68
$GPGGA,224303.377,4304.263,N,08923.947,W,1,12,1.0,0.0,M,0.0,M,,*75
$GPGSA,A,3,01,02,03,04,05,06,07,08,09,10,11,12,1.0,1.0,1.0*30
$GPRMC,224303.377,A,4304.263,N,08923.947,W,038.9,001.6,161125,000.0,W*64
$GPGGA,224304.377,4304.274,N,08923.947,W,1,12,1.0,0.0,M,0.0,M,,*74
$GPGSA,A,3,01,02,03,04,05,06,07,08,09,10,11,12,1.0,1.0,1.0*30
$GPRMC,224304.377,A,4304.274,N,08923.947,W,038.9,001.6,161125,000.0,W*65
$GPGGA,224305.377,4304.285,N,08923.946,W,1,12,1.0,0.0,M,0.0,M,,*7A
$GPGSA,A,3,01,02,03,04,05,06,07,08,09,10,11,12,1.0,1.0,1.0*30
$GPRMC,224305.377,A,4304.285,N,08923.946,W,038.9,001.6,161125,000.0,W*6B
$GPGGA,224306.377,4304.296,N,08923.946,W,1,12,1.0,0.0,M,0.0,M,,*7B
$GPGSA,A,3,01,02,03,04,05,06,07,08,09,10,11,12,1.0,1.0,1.0*30
$GPRMC,224306.377,A,4304.296,N,08923.946,W,038.9,001.1,161125,000.0,W*6D
$GPGGA,224307.377,4304.306,N,08923.946,W,1,12,1.0,0.0,M,0.0,M,,*72
$GPGSA,A,3,01,02,03,04,05,06,07,08,09,10,11,12,1.0,1.0,1.0*30
$GPRMC,224307.377,A,4304.306,N,08923.946,W,038.9,001.1,161125,000.0,W*64
$GPGGA,224308.377,4304.317,N,08923.945,W,1,12,1.0,0.0,M,0.0,M,,*7E
$GPGSA,A,3,01,02,03,04,05,06,07,08,09,10,11,12,1.0,1.0,1.0*30
$GPRMC,224308.377,A,4304.317,N,08923.945,W,038.9,001.1,161125,000.0,W*68
$GPGGA,224309.377,4304.328,N,08923.945,W,1,12,1.0,0.0,M,0.0,M,,*73
$GPGSA,A,3,01,02,03,04,05,06,07,08,09,10,11,12,1.0,1.0,1.0*30
$GPRMC,224309.377,A,4304.328,N,08923.945,W,038.9,001.1,161125,000.0,W*65
$GPGGA,224310.377,4304.339,N,08923.945,W,1,12,1.0,0.0,M,0.0,M,,*7B
$GPGSA,A,3,01,02,03,04,05,06,07,08,09,10,11,12,1.0,1.0,1.0*30
$GPRMC,224310.377,A,4304.339,N,08923.945,W,038.9,001.1,161125,000.0,W*6D
$GPGGA,224311.377,4304.350,N,08923.945,W,1,12,1.0,0.0,M,0.0,M,,*75
$GPGSA,A,3,01,02,03,04,05,06,07,08,09,10,11,12,1.0,1.0,1.0*30
$GPRMC,224311.377,A,4304.350,N,08923.945,W,038.9,001.1,161125,000.0,W*63
$GPGGA,224312.377,4304.360,N,08923.944,W,1,12,1.0,0.0,M,0.0,M,,*74
$GPGSA,A,3,01,02,03,04,05,06,07,08,09,10,11,12,1.0,1.0,1.0*30
$GPRMC,224312.377,A,4304.360,N,08923.944,W,038.9,001.1,161125,000.0,W*62
$GPGGA,224313.377,4304.371,N,08923.944,W,1,12,1.0,0.0,M,0.0,M,,*75
$GPGSA,A,3,01,02,03,04,05,06,07,08,09,10,11,12,1.0,1.0,1.0*30
$GPRMC,224313.377,A,4304.371,N,08923.944,W,038.9,001.6,161125,000.0,W*64
$GPGGA,224314.377,4304.382,N,08923.944,W,1,12,1.0,0.0,M,0.0,M,,*7E
$GPGSA,A,3,01,02,03,04,05,06,07,08,09,10,11,12,1.0,1.0,1.0*30
$GPRMC,224314.377,A,4304.382,N,08923.944,W,038.9,001.6,161125,000.0,W*6F
$GPGGA,224315.377,4304.393,N,08923.943,W,1,12,1.0,0.0,M,0.0,M,,*78
$GPGSA,A,3,01,02,03,04,05,06,07,08,09,10,11,12,1.0,1.0,1.0*30
$GPRMC,224315.377,A,4304.393,N,08923.943,W,038.9,001.6,161125,000.0,W*69
$GPGGA,224316.377,4304.404,N,08923.943,W,1,12,1.0,0.0,M,0.0,M,,*72
$GPGSA,A,3,01,02,03,04,05,06,07,08,09,10,11,12,1.0,1.0,1.0*30
$GPRMC,224316.377,A,4304.404,N,08923.943,W,038.9,001.6,161125,000.0,W*63
$GPGGA,224317.377,4304.414,N,08923.942,W,1,12,1.0,0.0,M,0.0,M,,*73
$GPGSA,A,3,01,02,03,04,05,06,07,08,09,10,11,12,1.0,1.0,1.0*30
$GPRMC,224317.377,A,4304.414,N,08923.942,W,038.9,001.6,161125,000.0,W*62
$GPGGA,224318.377,4304.425,N,08923.942,W,1,12,1.0,0.0,M,0.0,M,,*7E
$GPGSA,A,3,01,02,03,04,05,06,07,08,09,10,11,12,1.0,1.0,1.0*30
$GPRMC,224318.377,A,4304.425,N,08923.942,W,038.9,001.6,161125,000.0,W*6F
$GPGGA,224319.377,4304.436,N,08923.941,W,1,12,1.0,0.0,M,0.0,M,,*7E
$GPGSA,A,3,01,02,03,04,05,06,07,08,09,10,11,12,1.0,1.0,1.0*30
$GPRMC,224319.377,A,4304.436,N,08923.941,W,038.9,001.6,161125,000.0,W*6F
$GPGGA,224320.377,4304.447,N,08923.941,W,1,12,1.0,0.0,M,0.0,M,,*72
$GPGSA,A,3,01,02,03,04,05,06,07,08,09,10,11,12,1.0,1.0,1.0*30
$GPRMC,224320.377,A,4304.447,N,08923.941,W,038.9,000.3,161125,000.0,W*67
$GPGGA,224321.377,4304.457,N,08923.941,W,1,12,1.0,0.0,M,0.0,M,,*72
$GPGSA,A,3,01,02,03,04,05,06,07,08,09,10,11,12,1.0,1.0,1.0*30
$GPRMC,224321.377,A,4304.457,N,08923.941,W,038.9,000.3,161125,000.0,W*67
$GPGGA,224322.377,4304.468,N,08923.941,W,1,12,1.0,0.0,M,0.0,M,,*7D
$GPGSA,A,3,01,02,03,04,05,06,07,08,09,10,11,12,1.0,1.0,1.0*30
$GPRMC,224322.377,A,4304.468,N,08923.941,W,038.9,000.3,161125,000.0,W*68
$GPGGA,224323.377,4304.479,N,08923.941,W,1,12,1.0,0.0,M,0.0,M,,*7C
$GPGSA,A,3,01,02,03,04,05,06,07,08,09,10,11,12,1.0,1.0,1.0*30
$GPRMC,224323.377,A,4304.479,N,08923.941,W,038.9,000.3,161125,000.0,W*69
$GPGGA,224324.377,4304.490,N,08923.941,W,1,12,1.0,0.0,M,0.0,M,,*7C
$GPGSA,A,3,01,02,03,04,05,06,07,08,09,10,11,12,1.0,1.0,1.0*30
$GPRMC,224324.377,A,4304.490,N,08923.941,W,038.9,318.8,161125,000.0,W*68
$GPGGA,224325.377,4304.498,N,08923.951,W,1,12,1.0,0.0,M,0.0,M,,*74
$GPGSA,A,3,01,02,03,04,05,06,07,08,09,10,11,12,1.0,1.0,1.0*30
$GPRMC,224325.377,A,4304.498,N,08923.951,W,038.9,327.9,161125,000.0,W*6D
$GPGGA,224326.377,4304.507,N,08923.958,W,1,12,1.0,0.0,M,0.0,M,,*79
$GPGSA,A,3,01,02,03,04,05,06,07,08,09,10,11,12,1.0,1.0,1.0*30
$GPRMC,224326.377,A,4304.507,N,08923.958,W,038.9,001.0,161125,000.0,W*6E
$GPGGA,224327.377,4304.518,N,08923.958,W,1,12,1.0,0.0,M,0.0,M,,*76
$GPGSA,A,3,01,02,03,04,05,06,07,08,09,10,11,12,1.0,1.0,1.0*30
$GPRMC,224327.377,A,4304.518,N,08923.958,W,038.9,001.0,161125,000.0,W*61
$GPGGA,224328.377,4304.529,N,08923.958,W,1,12,1.0,0.0,M,0.0,M,,*7B
$GPGSA,A,3,01,02,03,04,05,06,07,08,09,10,11,12,1.0,1.0,1.0*30
$GPRMC,224328.377,A,4304.529,N,08923.958,W,038.9,001.0,161125,000.0,W*6C
$GPGGA,224329.377,4304.539,N,08923.958,W,1,12,1.0,0.0,M,0.0,M,,*7B
$GPGSA,A,3,01,02,03,04,05,06,07,08,09,10,11,12,1.0,1.0,1.0*30
$GPRMC,224329.377,A,4304.539,N,08923.958,W,038.9,349.4,161125,000.0,W*67
$GPGGA,224330.377,4304.550,N,08923.960,W,1,12,1.0,0.0,M,0.0,M,,*77
$GPGSA,A,3,01,02,03,04,05,06,07,08,09,10,11,12,1.0,1.0,1.0*30
$GPRMC,224330.377,A,4304.550,N,08923.960,W,038.9,272.2,161125,000.0,W*64
$GPGGA,224331.377,4304.551,N,08923.975,W,1,12,1.0,0.0,M,0.0,M,,*73
$GPGSA,A,3,01,02,03,04,05,06,07,08,09,10,11,12,1.0,1.0,1.0*30
$GPRMC,224331.377,A,4304.551,N,08923.975,W,038.9,272.2,161125,000.0,W*60
$GPGGA,224332.377,4304.551,N,08923.990,W,1,12,1.0,0.0,M,0.0,M,,*7B
$GPGSA,A,3,01,02,03,04,05,06,07,08,09,10,11,12,1.0,1.0,1.0*30
$GPRMC,224332.377,A,4304.551,N,08923.990,W,038.9,272.2,161125,000.0,W*68
$GPGGA,224333.377,4304.551,N,08924.005,W,1,12,1.0,0.0,M,0.0,M,,*78
$GPGSA,A,3,01,02,03,04,05,06,07,08,09,10,11,12,1.0,1.0,1.0*30
$GPRMC,224333.377,A,4304.551,N,08924.005,W,038.9,272.2,161125,000.0,W*6B
$GPGGA,224334.377,4304.552,N,08924.019,W,1,12,1.0,0.0,M,0.0,M,,*71
$GPGSA,A,3,01,02,03,04,05,06,07,08,09,10,11,12,1.0,1.0,1.0*30
$GPRMC,224334.377,A,4304.552,N,08924.019,W,038.9,272.2,161125,000.0,W*62
$GPGGA,224335.377,4304.552,N,08924.034,W,1,12,1.0,0.0,M,0.0,M,,*7F
$GPGSA,A,3,01,02,03,04,05,06,07,08,09,10,11,12,1.0,1.0,1.0*30
$GPRMC,224335.377,A,4304.552,N,08924.034,W,038.9,357.1,161125,000.0,W*69
$GPGGA,224336.377,4304.563,N,08924.035,W,1,12,1.0,0.0,M,0.0,M,,*7F
$GPGSA,A,3,01,02,03,04,05,06,07,08,09,10,11,12,1.0,1.0,1.0*30
$GPRMC,224336.377,A,4304.563,N,08924.035,W,038.9,357.1,161125,000.0,W*69
$GPGGA,224337.377,4304.574,N,08924.036,W,1,12,1.0,0.0,M,0.0,M,,*7B
$GPGSA,A,3,01,02,03,04,05,06,07,08,09,10,11,12,1.0,1.0,1.0*30
$GPRMC,224337.377,A,4304.574,N,08924.036,W,038.9,278.6,161125,000.0,W*66
$GPGGA,224338.377,4304.575,N,08924.050,W,1,12,1.0,0.0,M,0.0,M,,*75
$GPGSA,A,3,01,02,03,04,05,06,07,08,09,10,11,12,1.0,1.0,1.0*30
$GPRMC,224338.377,A,4304.575,N,08924.050,W,038.9,313.8,161125,000.0,W*6A
$GPGGA,224339.377,4304.583,N,08924.061,W,1,12,1.0,0.0,M,0.0,M,,*7F
$GPGSA,A,3,01,02,03,04,05,06,07,08,09,10,11,12,1.0,1.0,1.0*30
$GPRMC,224339.377,A,4304.583,N,08924.061,W,038.9,313.8,161125,000.0,W*60
$GPGGA,224340.377,4304.590,N,08924.072,W,1,12,1.0,0.0,M,0.0,M,,*71
$GPGSA,A,3,01,02,03,04,05,06,07,08,09,10,11,12,1.0,1.0,1.0*30
$GPRMC,224340.377,A,4304.590,N,08924.072,W,038.9,313.8,161125,000.0,W*6E
